id,city,country,country_code,lat,lon
,Port Vendres (Carcassonne),,,,
,Puerto Quetzal (Antigua),,,,
ChIJDRIsQgFvDowRDoJZqcp_5D0,St. Martin,,,18.0708298,-63.0500809
ChIJSyCNfAfJlEARrofUZIqAX3w,Yalta,,,44.495205000000013,34.166301
ChIJ4QD2vUx3zYgRYA13Gn5NKU4,Havana,Cuba,CU,23.1135925,-82.3665956
ChIJa2WSkedbzo4ROBoLRuxbGec,Santiago de Cuba,Cuba,CU,20.01693,-75.8301537
ChIJNSsCw1OeG24Rl0wFjrCEY2g,Dravuni Island,Fiji,FJ,-18.7624574,178.522084
ChIJ1UmgLlRgF24Rv53q4vvEz30,Lautoka,Fiji,FJ,-17.6169957,177.4504888
ChIJUQgUUYtaF24RKNOlslOphx0,Nadi,Fiji,FJ,-17.7765356,177.4356227
ChIJSQy-1cpEF24RycLPjR-4rQA,Port Denarau,Fiji,FJ,-17.772616,177.381123
ChIJrU8RQiLeG24RyddNu3R1B-I,Suva,Fiji,FJ,-18.1248086,178.4500789
ChIJya-ah6j_kT4RLKd5DW2HU9s,Muscat,Oman,OM,23.58589,58.4059227
ChIJeciBRJbf0z0RFLMuyMdY56U,Salalah,Oman,OM,17.0506675,54.1065864
ChIJy8FA5LAQ6pERkmYKBNe4EJI,Iquitos,Peru,PE,-3.7436735,-73.251632600000008
ChIJxz7uGfbFBZERSi5FzLlsIBQ,Lima,Peru,PE,-12.0463731,-77.042754
ChIJ23da4s84hY4RL4yBiT6KavE,Aruba,Aruba,AW,12.52111,-69.968338
ChIJB_QgaU06GJYR38mleVrxo4Y,Puerto Montt,Chile,CL,-41.468917,-72.941136399999991
ChIJIcwJs1jKUrwRFmlFZYtqYfo,Punta Arenas,Chile,CL,-53.1638329,-70.9170683
ChIJOxOubMrPYpYRqfxLtoKReg4,Santiago (Valparaiso),Chile,CL,-33.4569746,-70.5785262
ChIJuSwU55ZS8DURiqkPryBWYrk,Beijing,China,CN,39.904199899999988,116.4073963
ChIJMzz1sUBwsjURoWTDI5QSlQI,Shanghai,China,CN,31.2303904,121.4737021
ChIJ0w9xJpHE9RQRuWvuKabN4LQ,Alexandria,Egypt,EG,31.2000924,29.9187387
ChIJeRNC77xAWBQRfWof_Bxdp9c,Cairo (Port Said),Egypt,EG,30.0483239,31.2544961
ChIJJckGViwNTRQRQQBHLoIR2Wc,Safaga,Egypt,EG,26.7500171,33.9359756
ChIJo2HfKLfAto4RVTnmEz1JICs,Labadee,Haiti,HT,19.77205,-72.2474823
ChIJ2UEvfIUNdDkRQjtSqTjvSng,Agra,India,IN,27.1766701,78.008074499999992
ChIJv8a-SlENCDsRkkGEpcqC1Qs,Cochin,India,IN,9.9312328,76.26730409999999
ChIJgeJXTN9KbDkRCS7yDDrG4Qw,Jaipur,India,IN,26.9124336,75.7872709
ChIJZ_YISduC-DkRvCxsj-Yw40M,Kolkata,India,IN,22.572646,88.363895000000014
ChIJwe1EZjDG5zsRaYxkjY_tpF0,Mumbai (Bombay),India,IN,19.0759837,72.8776559
ChIJLbZ-NFv9DDkRzk0gTkm3wlI,New Delhi,India,IN,28.6139391,77.2090212
ChIJw6lHJCqALRMRrMU_VIBWrQ8,Ancona,Italy,IT,43.6158299,13.518915
ChIJb40H8_joRxMR4Qg5agZUcgg,Bari,Italy,IT,41.1171432,16.8718715
ChIJ6xs_rtF5OxMR6-IlPrQflcc,Capri,Italy,IT,40.5532009,14.222154
ChIJk9Hn2QU21hIRQoP3jg7Yd-s,Elba,Italy,IT,42.7781867,10.1927389
ChIJ42pOweLr1RIRvy64YvACP5U,Florence (Livorno),Italy,IT,43.5512344,10.3409032
ChIJrZrU3FJB0xIRCmKBGPGEaiM,Genoa,Italy,IT,44.4056499,8.946256
ChIJdZsFC6H81BIRDl9sAkbg2ko,La Spezia (Cinque Terre),Italy,IT,44.1114728,9.8165348999999988
ChIJ6_p622YIOxMRfriMZcxDOtI,Naples,Italy,IT,40.8517746,14.2681244
ChIJeepLAgRL2RIRCMiQpHAy_ns,Olbia,Italy,IT,40.923576399999988,9.4964429
ChIJmdBOgcnoGRMRgNg7IywECwo,Palermo,Italy,IT,38.1156879,13.3612671
ChIJBUxv_Maf1BIR2wEP8LWq2e8,Portofino,Italy,IT,44.3031559,9.2097879
ChIJoXFMw62VOxMR3ExPyRTP6Ew,Positano (Amalfi),Italy,IT,40.6333389,14.6028963
ChIJ5bbkX66kKBMRsn_SHXCqslE,Rome (Civitavecchia),Italy,IT,42.0924239,11.7954132
ChIJkTWNRI3E3RIRMWar5LZ0ljM,Sardinia,Italy,IT,40.1208752,9.0128925999999989
ChIJYVu_bVOZOxMRQM7Aq1frRCY,Sorrento,Italy,IT,40.6262925,14.3757985
ChIJtdmgkaERFBMRSekW1jSaoXQ,Taormina (Messina),Italy,IT,37.8516366,15.2853127
ChIJX5Ck1i9iGRMRgjSY-bze8Ys,Trapani,Italy,IT,38.0176177,12.537202
ChIJiT3W8dqxfkcRLxCSvfDGo3s,Venice,Italy,IT,45.4408474,12.3155151
ChIJu0_z7giZWjURcvfBz1DO5Ac,Hiroshima,Japan,JP,34.3852029,132.4552927
ChIJPcXjAFJhPjURhVhcXa393Jo,Kagoshima,Japan,JP,31.5965535,130.5571158
ChIJ2YntKoF9AGAR9HD2wgZhEsc,Kobe,Japan,JP,34.690083,135.1955112
ChIJZ9oYhFRMFTURk8wyyu2m94s,Nagasaki,Japan,JP,32.7502856,129.877667
ChIJ4eIGNFXmAGAR5y9q5G7BW8U,Osaka,Japan,JP,34.6937378,135.5021651
ChIJ51cu8IcbXWARiRtXIothAS4,Tokyo,Japan,JP,35.6894875,139.6917064
ChIJxUeGHShFDhMRF8lC4o7TWnQ,Malta (Valletta),Malta,MT,35.8989085,14.5145528
ChIJwfLM7ACeeg0RXki8jh-gnY0,Almeria,Spain,ES,36.834047,-2.4637136
ChIJ5TCOcRaYpBIRCmZHTz37sEQ,Barcelona,Spain,ES,41.3850639,2.1734035
ChIJuYlLZidOTg0RRaaVHsSsNGU,Bilbao,Spain,ES,43.2630126,-2.9349852
ChIJbbU6pCJCYw0R__n2_s6Q10c,Cartagena (Spain),Spain,ES,37.6256827,-0.9965839
ChIJd9ED1xh2Lg0RW7aoIgdLKJA,Ferrol,Spain,ES,43.489646000000008,-8.2193451
ChIJgQ_Cr3OkRwwRI3-1tRMcxyo,Fuerteventura,Spain,ES,28.3587436,-14.053676
ChIJQzkJhWNHmRIR1iaEzSVHBgk,Ibiza,Spain,ES,39.0200099,1.4821482
ChIJTVd08fx8Lg0R7t9cCQ01R2o,La Coruna,Spain,ES,43.3623436,-8.4115401
ChIJO6GHagzyawwRLYgwI9I3II4,La Palma,Spain,ES,28.7133828,-17.9057813
ChIJizmiHM0jRgwRGBV7xYrWoKI,Lanzarote,Spain,ES,29.0468535,-13.5899733
ChIJ0ZfAkQ6VQAwRZbo4U6y1Nqs,Las Palmas,Spain,ES,28.1235459,-15.4362574
ChIJUdEwjWn2cg0RgOZ2pXjSAwQ,Malaga,Spain,ES,36.7212737,-4.4213988
ChIJV8caxlmSlxIRxljQwwZUDcQ,Palma de Mallorca,Spain,ES,39.5696005,2.6501603
ChIJh0h7QSnPEw0Rb2tiVR4u-Ls,Seville (Cadiz),Spain,ES,37.9487714,-6.1588601
ChIJ7YKG_u8pQAwRPK9LyPFLGrA,Tenerife,Spain,ES,28.2915637,-16.6291304
ChIJLYFtqhQmPw0RORNoUFtiKp8,Vega de Terron (Salamanca),Spain,ES,40.961453,-5.661664
ChIJk8GyYRRiLw0Rn9RLF60dRHs,Vigo,Spain,ES,42.240598899999988,-8.7207268
ChIJz3czSEtYXI8RIv8SkG7c2-E,Belize City,Belize,BZ,17.5045661,-88.1962133
ChIJddZbyX9hZ48RzVVw19WcwpU,Harvest Caye,Belize,BZ,16.4790943,-88.4025621
ChIJt0d2s8gbbJIRzKll959cSCs,Manaus,Brazil,BR,-3.1190275,-60.0217314
ChIJW6AIkVXemwARTtIvZ2xC3FA,Rio de Janeiro,Brazil,BR,-22.9068467,-43.1728965
ChIJb4XHfLkDzpQRRrxLsAfl8z8,Santos (Sao Paulo),Brazil,BR,-23.9561304,-46.3264089
ChIJxYN_1N1SXksRJ5tRn7h3V1o,Charlottetown (Prince Edward Island),Canada,CA,46.23824,-63.131070400000013
ChIJI91Q9Puxe0sR6EUAztvjtAI,Corner Brook,Canada,CA,48.9489967,-57.950272600000012
ChIJt7X11MvjSFER_R-tXLl6jUo,Dawson City (Yukon),Canada,CA,64.060069599999991,-139.4320347
ChIJq55ftyO_m0wRVQHxla79cUk,Gaspe,Canada,CA,48.8316351,-64.4869016
ChIJxesm0LsTRUsRW2dKWg1nkM0,Halifax,Canada,CA,44.648763500000008,-63.5752387
ChIJQ9GuIMFbV0sR600wrU96OVY,Lunenburg,Canada,CA,44.3770053,-64.3188354
ChIJDbdkHFQayUwR7-8fITgxTmU,Montreal,Canada,CA,45.5016889,-73.567256
ChIJaUV_axPVclQRElbZTQ_jB3E,Prince Rupert,Canada,CA,54.3150367,-130.3208187
ChIJk4jbBYqWuEwRAzro8GMtxY8,Quebec City,Canada,CA,46.8138783,-71.2079809
ChIJvQNCMGgnwEwRND3ZOCx7EP4,Saguenay,Canada,CA,48.4280529,-71.0684923
ChIJd_n5Hg3Fp0wRZ9IXJgdWgfA,Saint John (New Brunswick),Canada,CA,45.2733153,-66.0633081
ChIJYaIKa46jDEsRHyYSHwDUH54,St. John's (Newfoundland),Canada,CA,47.5615096,-52.7125768
ChIJFTRyfjb7Z0sRh4Awe5tTg6c,Sydney (Nova Scotia),Canada,CA,46.1367899,-60.194223999999991
ChIJs0-pQ_FzhlQRi_OBm-qWkbs,Vancouver,Canada,CA,49.2827291,-123.1207375
ChIJgVO8gJhEVFERSzXQZOq3PeQ,Whitehorse (Yukon),Canada,CA,60.7211871,-135.0568449
ChIJnfQCrBYz5xQRErAlcJV_qdo,Limassol,Cyprus,CY,34.7071301,33.0226174
ChIJzRRIXQdythIRUAWX_aUZCAQ,Arles,France,FR,43.676647,4.6277769
ChIJB528OYfrtRIRNnsd-m6bQuY,Avignon,France,FR,43.949317000000008,4.805528
ChIJtWrYNSrW2xIR0F2V_aUZCAQ,Bonifacio,France,FR,41.387173999999987,9.159269
ChIJgcpR9-gnVQ0RiXo5ewOGY3k,Bordeaux,France,FR,44.837789,-0.57918
ChIJ__8MU4CBzhIRIJ6X_aUZCAQ,Cannes,France,FR,43.552847,7.017369
ChIJjRgznQuXDEgRkH65T0gUDAQ,Cherbourg,France,FR,49.6337308,-1.622137
ChIJgyOd0rNp2hIRAF-V_aUZCAQ,Corsica (Ajaccio),France,FR,41.919229,8.738635
ChIJxV0P46Uz4EcR8Oq8T0gUDAQ,Honfleur,France,FR,49.418762,0.233262
ChIJdzRkB19UAUgRuVpdOfNztbc,La Rochelle-La Pallice,France,FR,46.1625749,-1.205105
ChIJfYshlSMv4EcREq8zr3qGwVs,Le Havre,France,FR,49.49437,0.107929
ChIJl4foalHq9EcR8CG75CqrCAQ,Lyon,France,FR,45.764043,4.835659
ChIJM1PaREO_yRIRIAKX_aUZCAQ,Marseille,France,FR,43.296482,5.36978
ChIJra6o8IHuBUgRMO0NHlI3DQQ,Nantes,France,FR,47.218371,-1.553621
ChIJMS2FahDQzRIRcJqX_aUZCAQ,Nice,France,FR,43.7101728,7.2619532000000007
ChIJD7fiBh9u5kcRYJSMaMOCCwQ,Paris,France,FR,48.856614,2.3522219
ChIJq_pxynbe4EcR1pOfpO-rHD0,Rouen,France,FR,49.443231999999988,1.099971
ChIJXb8mIRCBDkgRLeErsq196fg,Saint-Malo,France,FR,48.649337,-2.025674
ChIJR-cWgxTHzhIR37mELWMbKpE,Saint-Tropez,France,FR,43.2676808,6.6407108999999993
ChIJv0Db5IwGyRIREMmP_aUZCAQ,Sanary-Sur-Mer,France,FR,43.118021,5.801435
ChIJa8cuUJY1sRIRAmYnNvfhb5o,Sete,France,FR,43.4078758,3.7008219
ChIJwbIYXknIlkcRHyTnGDFIGpc,Strasbourg,France,FR,48.5734053,7.7521112999999993
ChIJ_bI1ewIbyRIRMMiP_aUZCAQ,Toulon,France,FR,43.124228,5.928
ChIJE07jsCnbzRIR9CjH665khhQ,Villefranche,France,FR,43.703976,7.311109000000001
ChIJRzGst-u7oRQR9_0w_5XaINg,Athens (Piraeus),Greece,GR,37.9429857,23.6469832
ChIJfwotqt1eWxMR0CErp-YUlAE,Corfu,Greece,GR,39.6242621,19.9216777
ChIJP-Fo0GtYmhQR8La54iy9AAQ,Crete (Heraklion),Greece,GR,35.3387352,25.1442126
ChIJR-1hJYzgYRMRLl1O4FE-7TE,Gythion,Greece,GR,36.761028,22.563999
ChIJsWDUsbV1nxQRwMK54iy9AAQ,Hydra,Greece,GR,37.3466624,23.4659497
ChIJkc7tm5fHYBMRoX_hYvpT0h4,Katakolon (Olympia),Greece,GR,37.6463089,21.3171307
ChIJRSwwWNC4ohQRgMe54iy9AAQ,Mykonos,Greece,GR,37.4467354,25.3288845
ChIJrU-bLvkKlRQRVNRb-BTQ7ic,Rhodes,Greece,GR,36.4340533,28.2176379
ChIJ95_9rYbOmRQR_IrWQPdhp7I,Santorini,Greece,GR,36.3931562,25.4615092
ChIJtUIdK5ngphQRM1XYi0dqLko,Skiathos,Greece,GR,39.16352,23.4901667
ChIJ8Wyv4WBspxQR4qoZAjmObl0,Volos,Greece,GR,39.3621896,22.942159
ChIJRegNdUy6HRURmlKBKpgjXcM,Haifa,Israel,IL,32.7940463,34.989571
ChIJS5fQJXmjAhURxtGl0-gPbZU,Jerusalem (Ashdod),Israel,IL,31.828191,34.644543
ChIJgfou_zlwABURzGoubVWqX1k,Aqaba,Jordan,JO,29.5320522,35.0063209
ChIJ7T0H5bDP7kYRMP7yaM3PAAQ,Riga,Latvia,LV,56.9496487,24.1051864
ChIJyVDOroVXyoUR46SQivfYAZg,Acapulco,Mexico,MX,16.8531086,-99.8236533
ChIJoQjlifNKr4YRaLiiwWLfpEs,Cabo San Lucas,Mexico,MX,22.8905327,-109.9167371
ChIJI4rlGmAsTI8RNLviZAsHRhw,Costa Maya,Mexico,MX,18.7322393,-87.6931202
ChIJJ5PRsO_4To8R_IsBXK68LjQ,Cozumel,Mexico,MX,20.4229839,-86.9223432
ChIJ9blUH_CO2IARUaZ2thuYYPM,Ensenada,Mexico,MX,31.8667427,-116.5963713
ChIJuetWr1cfv4URIFVbmNnUdAo,Huatulco,Mexico,MX,15.782399,-96.065587
ChIJyXcNIIh2NIQRW3y9evvq7Lw,Ixtapa-Zihuatanejo,Mexico,MX,17.6625661,-101.58734
ChIJGT67FzTUJIQRSw1156rps90,Manzanillo,Mexico,MX,19.1138094,-104.3384616
ChIJwTcYaEFTn4YRsnI88arEpGI,Mazatlan,Mexico,MX,23.2494148,-106.4111425
ChIJ8XrvwTpDTo8REbTa09etpoI,Playa del Carmen (Calica),Mexico,MX,20.6659066,-87.034781
ChIJ0yPvvd3CVY8RLV21eHL38_w,Progreso,Mexico,MX,21.2811908,-89.66516279999999
ChIJf8hjUGNFIYQRdFK_hZm_z3k,Puerto Vallarta,Mexico,MX,20.653407,-105.2253316
ChIJEUSnTrSlK4ERs1_HaWF5SUM,Rocky Point (Puerto Penasco),Mexico,MX,31.3268218,-113.5311843
ChIJza3f3ofCzRIRbGhb2W4pFe4,Monaco (Monte Carlo),Monaco,MC,43.7400718,7.4266435999999993
ChIJS_tHEEfaFkYR6o_AO-5iJeg,Alesund,Norway,NO,62.472228400000013,6.149482
ChIJawWsznUJFEYRzVoZlIGmGms,Andalsnes,Norway,NO,62.567446100000012,7.68722
ChIJd312ZkkNOUYRCAretD6gQp4,Bergen,Norway,NO,60.391262799999993,5.3220544
ChIJ9eHn2Fn6PkYRPBcNFIpx_ww,Eidfjord,Norway,NO,60.4605514,7.0735779999999986
ChIJw1fDz88TPkYRxRDVqvZvKDM,Flam,Norway,NO,60.8607716,7.1117849
ChIJyXwxDm0mFEYRE3M_nZFAW-4,Geiranger,Norway,NO,62.1008441,7.2058940999999992
ChIJ5xJK2ucS3kURsSoOmL9F7_o,Gravdal,Norway,NO,68.1203112,13.5365568
ChIJSfrS0EGpyUURRpgWM6Ngp70,Honningsvag,Norway,NO,70.9822909,25.9702074
ChIJW3pg1VgCOEYRpFgcyG8NDN8,Kristiansand,Norway,NO,58.15991189999999,8.0182064
ChIJWcLG1x1UEUYR9DPe-IgUBZI,Molde,Norway,NO,62.737235200000008,7.1607306
ChIJSZ0cwWd8FkYR5cxazPeP05k,Olden,Norway,NO,61.8350282,6.8065555999999994
ChIJvRIImcJtQUYReQpUuAPqbBA,Oslo,Norway,NO,59.984904,10.7166777
ChIJg-qR4Cq-FUYRsnPxKwGDbqA,Skjolden,Norway,NO,61.4905159,7.6005767
ChIJlfcp3Uk1OkYRWZIKuCHreq0,Stavanger,Norway,NO,58.9699756,5.7331073
ChIJ_XE7bFLExEUR075ujoXKPQI,Tromso,Norway,NO,69.6492047,18.9553238
ChIJU34DR5cxbUYR1PM8jyjI9ws,Trondheim,Norway,NO,63.4305149,10.3950528
ChIJP4g2s55tq48R-DT1Af8fBC8,Colon (Cristobal),Panama,PA,9.350598999999999,-79.901527
ChIJwQWj1wCvrI8RdRSauuhEIs0,Fuerte Amador,Panama,PA,8.9110608,-79.5203978
ChIJH_bebvhmpY8ReuGZg6w0Fe0,Isla Parida,Panama,PA,8.1218176,-82.339763499999989
ChIJb_rUFBxz_UYRjb63Y_H7uZs,Gdansk,Poland,PL,54.352025200000007,18.6466384
ChIJybDUc_xKtUYRTM9XV8zWRD0,Moscow,Russia,RU,55.755826,37.6173
ChIJ7WVKx4w3lkYR_46Eqz9nx20,St. Petersburg,Russia,RU,59.9342802,30.3350986
ChIJPwdslmeOT0YRQHwOKXiQAQQ,Gothenburg,Sweden,SE,57.70887,11.97456
ChIJywtkGTF2X0YRZnedZ9MnDag,Stockholm,Sweden,SE,59.329323499999987,18.0685808
ChIJCc4i0dOo90YRwAmNsvX-AAo,Visby,Sweden,SE,57.6348,18.29484
ChIJPU6fNbSfaDQRcXcL-ANUSB8,Hualien,Taiwan,TW,23.9910732,121.6111949
ChIJNUifIP0EbjQRCXzIhn0eUVQ,Kaohsiung,Taiwan,TW,22.6350591,120.3355193
ChIJlXSDuP1NXTQRaGXyRapr954,Taipei (Keelung),Taiwan,TW,25.1276033,121.7391833
ChIJwa2t3a6awxQRMy7j-XOfxpU,Antalya,Turkey,TR,36.8968908,30.7133233
ChIJadawrk9svhQRClkG9xjiplE,Bodrum,Turkey,TR,37.034407,27.43054
ChIJdVbTUrd5uxQREQX1njd7KGE,Cesme,Turkey,TR,38.324311,26.303215
ChIJawhoAASnyhQR0LABvJj-zOE,Istanbul,Turkey,TR,41.0082376,28.9783589
ChIJzcpip2LYuxQR_uicpaG7jGI,Izmir,Turkey,TR,38.423734,27.142826
ChIJJ1RqlSupvhQR9C4PEF1ym9g,Kusadasi,Turkey,TR,37.857913,27.261015
ChIJn2Xqd2myjxIRSW-jOC0QMUI,Algiers,Algeria,DZ,36.753768,3.0587561
ChIJrVR-WfmFckcR9aYTLSm6rNA,Durnstein (Krems),Austria,AT,48.3976064,15.5197381
ChIJCfIjQe2Xc0cR7LGGqn8Bg6s,Linz (Salzburg),Austria,AT,48.297572,14.3034645
ChIJh_7zEkdkckcRN8mJ3Rr8jlE,Melk,Austria,AT,48.22647,15.34996
ChIJn8o2UZ4HbUcRRluiUYrlwv0,Vienna,Austria,AT,48.2081743,16.3738189
ChIJEaJHak5SSD4RRhDa2-JQlC4,Bahrain,Bahrain,BH,26.0667,50.5577
ChIJfYjDv472w0cRuIqogoRErz4,Antwerp,Belgium,BE,51.2194475,4.4024643
ChIJiefnLYkZwEcRIGJNL6uZAAQ,Bastogne,Belgium,BE,50.0005062,5.7152802
ChIJDUIewdBQw0cR902DyFrzoho,Brugge (Bruges),Belgium,BE,51.209348,3.2246995
ChIJ_58PdIbEw0cRMIBML6uZAAE,Brussels,Belgium,BE,50.8503463,4.3517211
ChIJrUOUM-Fww0cRQFFNL6uZAAQ,Ghent,Belgium,BE,51.0543422,3.7174243
ChIJP2UsDG2ZwUcRBVIWxLYmVsE,Namur,Belgium,BE,50.4673883,4.8719854
ChIJd4UJVHMTLYoRmprHUdjNV1E,King's Wharf,Bermuda,BM,32.3240621,-64.8326261
ChIJD6T1BArfXpERs4pFtHb821c,La Paz,Bolivia,BO,-16.489689,-68.119293599999992
ChIJfeg1CKKLSxMRANUrhlCtAAQ,Dubrovnik,Croatia,HR,42.650660599999988,18.0944238
ChIJLWVLkreJShMR5it2KcNfF_c,Hvar,Croatia,HR,43.1541875,16.6527099
ChIJU1l8zH9CShMRRp1rk_umap4,Korcula,Croatia,HR,42.9297182,16.888644
ChIJF_W8a_xdNRMRmJ-0MfaPeaE,Split,Croatia,HR,43.5081323,16.4401935
ChIJj7jA0mL6YUcRhAf0Exw-MhI,Zadar,Croatia,HR,44.119371,15.2313648
ChIJeRhuM5xdc0cRIN8UZg-vAAQ,Cesky Krumlov,Czechia,CZ,48.8127354,14.3174657
ChIJi3lwCZyTC0cRkEAWZg-vAAQ,Prague,Czechia,CZ,50.0755381,14.4378005
ChIJDT3fX7IzSUYRwybsLmq0sU4,Aalborg,Denmark,DK,57.0488195,9.921747
ChIJi3iXU7FMTEYRr6IukdnXTYw,Aarhus,Denmark,DK,56.162939,10.203921
ChIJIz2AXDxTUkYRuGeU5t1-3QQ,Copenhagen,Denmark,DK,55.6760968,12.5683371
ChIJvxZW35mUkkYRcGL8GG2zAAQ,Tallinn,Estonia,EE,59.436960799999987,24.7535746
ChIJkQYhlscLkkYRY_fiO4S9Ts0,Helsinki,Finland,FI,60.169855699999992,24.938379
ChIJQ-iJkaXPQkARaK9zV8wxWxc,Wala,Georgia,GE,41.613796099999988,42.8762335
ChIJRTH3kUMfl0cRwcXzMxkpD2M,Baden-Baden,Germany,DE,48.76564,8.228524199999999
ChIJtb7UOAUjokcRgNlh8Ci3HQQ,Bamberg,Germany,DE,49.8988135,10.9027636
ChIJAVkDPzdOqEcRcDteW0YgIQQ,Berlin,Germany,DE,52.520006599999988,13.404954
ChIJbZ-jkJolvkcR561fO-wvlU0,Bernkastel-Kues,Germany,DE,49.9197888,7.0626677
ChIJYU4gxBGxtkcRoHMAY3fPJgQ,Bremerhaven,Germany,DE,53.5395845,8.5809424
ChIJKYIAvHRHvkcRVOIC2FKKkfc,Cochem,Germany,DE,50.146944,7.1666669999999986
ChIJ5S-raZElv0cR8HcqSvxgJwQ,Cologne,Germany,DE,50.937531,6.9602786
ChIJqdYaECnPCUcRsP6IQsuxIQQ,Dresden,Germany,DE,51.0504088,13.7372621
ChIJB1lG8XvJuEcRsHMqSvxgJwQ,Dusseldorf,Germany,DE,51.2277411,6.7734556
ChIJxZZwR28JvUcRAMawKVBDIgQ,Frankfurt,Germany,DE,50.1109221,8.6821267
ChIJuRMYfoNhsUcRoDrWe_I9JgQ,Hamburg,Germany,DE,53.5510846,9.9936818
ChIJzdzMDgXBl0cR1zokRADq5u8,Heidelberg,Germany,DE,49.3987524,8.6724335
ChIJnX0jdld7vkcRYLPaENXUIgQ,Koblenz,Germany,DE,50.3569429,7.5889959
ChIJeRPfMy6RvUcRoBvbENXUIgQ,Mainz,Germany,DE,49.9928617,8.2472526
ChIJv4nIR8RUvUcR7NgcoWqVf0Y,Miltenberg,Germany,DE,49.7019294,9.2559213
ChIJ0xy2ta5Xn0cRtyGMqYWvXd0,Nuremberg,Germany,DE,49.4521018,11.0766654
ChIJZaCgQ3lYdEcRMK83CaQlHQQ,Passau,Germany,DE,48.5667364,13.4319466
ChIJ9y4icpjBn0cREMs3CaQlHQQ,Regensburg,Germany,DE,49.0134297,12.1016236
ChIJq3E_UiBWrEcRXLLG-4MQEp4,Rostock (Warnemunde),Germany,DE,54.170342,12.0784438
ChIJK3mMDTDmvUcRcKKwKVBDIgQ,Rudesheim,Germany,DE,49.982144299999987,7.9301124
ChIJIW-mXZy2l0cR0BvbENXUIgQ,Speyer,Germany,DE,49.3172765,8.4412171999999988
ChIJz0siZMGKrUcRrYDQnaFU-jU,Travemunde (Lubeck),Germany,DE,53.9600008,10.8535751
ChIJxfsc0Zt8lUcRS3LNTaWjDP4,Trier,Germany,DE,49.749992,6.6371433
ChIJ8c76U73_dEcRIMQ3CaQlHQQ,Vilshofen an der Donau,Germany,DE,48.6270454,13.1829237
ChIJ2U3aEiCQokcRoAli8Ci3HQQ,Wurzburg,Germany,DE,49.791304399999987,9.9533548
ChIJ0XuH9IkXOIwRjk8fWgHH2DY,Grenada,Grenada,GD,12.1165,-61.678999999999988
ChIJmYUAaXghOIwRKlw7DZBdMgI,St. George's,Grenada,GD,12.0560975,-61.7487996
ChIJyc_U0TTDQUcRYBEeDCnEAAQ,Budapest,Hungary,HU,47.497912,19.040235
ChIJbwP0Mv5WQkcRjJRYpsoSE_w,Kalosca,Hungary,HU,46.5281229,18.9840376
ChIJp7-wHAeP0kgR0f1xjHkytr0,Akureyri,Iceland,IS,65.688492099999991,-18.1261693
ChIJw-3c7rl01kgRcWDSMKIskew,Reykjavik,Iceland,IS,64.126520599999992,-21.8174393
ChIJB_TrdZ2DREgRIWMlMRd4mDw,Cobh (Cork),Ireland,IE,51.8503357,-8.294285799999999
ChIJL6wn6oAOZ0gRoHExl6nHAAo,Dublin,Ireland,IE,53.3498053,-6.2603097
ChIJseJ3_V0q2o4RZlfMWtua1vw,Montego Bay,Jamaica,JM,18.4762228,-77.8938895
ChIJ1YH7Hcn92o4RdyzObcG6ziQ,Ocho Rios,Jamaica,JM,18.4073894,-77.1031345
ChIJyRyt2um2sw0RdIT0i7fQ-Lw,Agadir,Morocco,MA,30.4277547,-9.5981072
ChIJLRNM8FyHCw0ReuG0v3HFv3Y,Tangier,Morocco,MA,35.7594651,-5.8339542999999994
ChIJT608vzr5sUARKKacfOMyBqw,Bucharest,Romania,RO,44.4267674,26.1025384
ChIJ8WYBpNG04hIRN-1EllXkvM0,Tunis (La Goulette),Tunisia,TN,36.8200203,10.3020843
ChIJQ0yGC4oxxkARbBfyjOKPnxI,Odessa,Ukraine,UA,46.482526,30.7233095
ChIJ0_c7xv-An5URmexbNS4bMms,Montevideo,Uruguay,UY,-34.9011127,-56.164531399999987
ChIJA3NazhNM8m4Ru6SJRcnLB1g,Champagne Bay (Vanuatu),Vanuatu,VU,-15.1437919,167.1203814
ChIJube9Ucz98m4RlnfH9wALZqo,Luganville,Vanuatu,VU,-15.5064326,167.2002745
ChIJ56kZbRe9fW4RGJDJl4-kCCE,Mystery Island,Vanuatu,VU,-20.2488905,169.7718787
ChIJdRbyzlCR9G4R9bu3CtZ7Wl4,Pentecost Island,Vanuatu,VU,-15.7173168,168.1792434
ChIJE2CSyF5giW4RlscpI2eU5zw,Port Vila,Vanuatu,VU,-17.7332512,168.3273245
ChIJL0yrrnmFCjERedmTRaoq3GQ,Cai Be,Vietnam,VN,10.3718873,105.9464874
ChIJEyolkscZQjERh2RDRKDjFPw,Da Nang,Vietnam,VN,16.0544068,108.2021667
ChIJh-6MUZZXSjER23hUyLywxlU,Halong Bay,Vietnam,VN,20.9100512,107.1839024
ChIJoRyG2ZurNTERqRfKcnt_iOc,Hanoi,Vietnam,VN,21.0277644,105.8341598
ChIJ0T2NLikpdTERKxE8d61aX_E,Ho Chi Minh City (Saigon),Vietnam,VN,10.8230989,106.6296638
ChIJ3bha-7ovCjERj8uxtnGdp6U,Tan Chau,Vietnam,VN,10.8026827,105.1960795
ChIJoxoyrvvxQ4wRKzb0jLNR7A4,Barbados,Barbados,BB,13.193887,-59.543198
ChIJodfzqotTpEARfIulcRyUJ1c,Varna,Bulgaria,BG,43.2140504,27.9147333
ChIJ3ZGUPUshqUARwF2_aRKgAAQ,Veliko Tarnovo,Bulgaria,BG,43.0756739,25.6171514
ChIJ42tqxz1RCTERuyW1WugOAZw,Phnom Penh,Cambodia,KH,11.5448729,104.8921668
ChIJeaiRjJoWEDER-rvlPvmqQKk,Siem Reap,Cambodia,KH,13.3670968,103.8448134
ChIJRUxWL93hBzER7WJDJdr48RM,Sihanoukville,Cambodia,KH,10.6253016,103.5233963
ChIJUROdrucl9o4RyiY_Ay45YbE,Cartagena (Colombia),Colombia,CO,10.3910485,-75.4794257
ChIJx_3HYr6dhI4RI0fG2yiSf_w,Curacao,Curaçao,CW,12.16957,-68.99002
ChIJFVoV8vrSFIwRPP06BQmRs0k,Dominica,Dominica,DM,15.414999,-61.370976000000013
ChIJW-PWowRzDUgR2rHna7uIkF8,St. Peter Port (Guernsey),Guernsey,GG,49.4541677,-2.5497069
ChIJ5Z1f8lykeo8RlZNKo782E8E,Amapala,Honduras,HN,13.2916538,-87.651947299999989
ChIJGUN-ls8wao8R1-K5NOiwQYc,Banana Coast (Trujillo),Honduras,HN,15.9001247,-86.021238
ChIJed5o-Oj6aY8RgKDcxeooF54,Roatan,Honduras,HN,16.3297608,-86.5299673
ChIJD22fE7wWGXoRXg7F2-bWoBM,Fanning Island,Kiribati,KI,3.8743,-159.3191
ChIJ9WlEWNQ3zDERsdpk4oBiylA,Kelang (Kuala Lumpur),Malaysia,MY,3.1523104,101.7178316
ChIJXXXEadp4TDAR_m2919txOeQ,Langkawi,Malaysia,MY,6.35,99.8
ChIJ3WWMjifu0TERagGedoFyKgM,Malacca,Malaysia,MY,2.189594,102.2500868
ChIJ3ZBTCQOUSjARP2OP86UFwyk,Penang,Malaysia,MY,5.4163459,100.3327617
ChIJa6BgJFeaOw0RTIkkpwiWP4o,Ferradosa,Portugal,PT,41.2615038,-6.9531225
ChIJO_PkYRozGQ0R0DaQ5L3rAAQ,Lisbon,Portugal,PT,38.7222524,-9.1393366
ChIJq4sfUMNfYAwROaHNFSxN2P8,Madeira (Funchal),Portugal,PT,32.6669328,-16.9240554
ChIJE7oMiKpEOw0RYhpK5zF0gpc,Pinhao,Portugal,PT,41.191005,-7.5461623
ChIJlw6wdswqQwsRFsRvTvKAVXY,Ponta Delgada,Portugal,PT,37.7428301,-25.6805868
ChIJ9z9FYkdvJA0Rpl_ePqmCw_4,Porto (Leixoes),Portugal,PT,41.1424978,-8.5993491999999989
ChIJl2HKCjaJbEcRaEOI_YKbH2M,Bratislava,Slovakia,SK,48.1485965,17.1077478
ChIJRZXbAitde0cRUPM_ghz4AAQ,Koper,Slovenia,SI,45.548058999999988,13.7301877
ChIJFxN3JV4X0hkRi6G8DS6B5UU,Mare,Tanzania,TZ,-1.7753538,34.1531947
ChIJjddlYnS5AjERngGl9gcPCDk,Bangkok (Laem Chabang),Thailand,TH,13.0579403,100.8919084
ChIJbyZmHFDxVDARMIN9Pb1a1e0,Koh Samui,Thailand,TH,9.5120168,100.0135929
ChIJT1JixOIxUDARIbo9BoWayuk,Phuket,Thailand,TH,7.9519331,98.33808839999999
ChIJvQz5TjvKvJURh47oiC6Bs6A,Buenos Aires,Argentina,AR,-34.6036844,-58.3815591
ChIJvwnRurUiTLwR_OtDuj1HmFQ,Ushuaia,Argentina,AR,-54.8019121,-68.3029511
ChIJP7Mmxcc1t2oRQMaOYlQ2AwQ,Adelaide,Australia,AU,-34.9284989,138.6007456
ChIJKZ074iUnOSoRkA56JDj2AAU,Albany (Australia),Australia,AU,-35.0275298,117.883959
ChIJM9KTrJpXkWsRQK_e81qjAgQ,Brisbane,Australia,AU,-27.4697707,153.0251235
ChIJUQxXIS3iMSoRUOh5JDj2AAQ,Bunbury,Australia,AU,-33.325636,115.6396494
ChIJYeoBhdTre6oRsBDe0E3JAwU,Burnie,Australia,AU,-41.0528583,145.9052168
ChIJ8W_tFhI5LioRIA16JDj2AAU,Busselton,Australia,AU,-33.6554927,115.3500188
ChIJEySiW1VieGkRYHggf_HuAAQ,Cairns,Australia,AU,-16.9185514,145.7780548
ChIJLdKrig_LnWkRUHIgf_HuAAQ,Cooktown,Australia,AU,-15.4758164,145.2470981
ChIJPwRZn_ygwCwRIHwkKqgXAgM,Darwin,Australia,AU,-12.4634403,130.8456418
ChIJl0geDnenPmsRkAlEkLQJBgQ,Eden (Australia),Australia,AU,-37.066667,149.9
ChIJuycfmldHWyoR0At6JDj2AAU,Esperance,Australia,AU,-33.8608027,121.8896205
ChIJ8WXGwx5h7GsRypvF5Cz6ipU,Fraser Island,Australia,AU,-25.2398229,153.1325243
ChIJz9ClKRwU1GoRkOmMIXVWBAU,Geelong,Australia,AU,-38.1499181,144.3617186
ChIJ747aUoNG2isRkBJ6JDj2AAU,Geraldton,Australia,AU,-28.7773715,114.6149715
ChIJn4mjDXd5rWoRkMS5RVU2Aw8,Kangaroo Island,Australia,AU,-35.7752426,137.2142417
ChIJ90260rVG1moRkM2MIXVWBAQ,Melbourne,Australia,AU,-37.8136276,144.9630576
ChIJc12OQwmek2sRAKze81qjAgU,Mooloolaba,Australia,AU,-26.682,153.118
ChIJDfv8grXIk2sR-eE0pXuzSmw,Moreton Island,Australia,AU,-27.0873207,153.4154233
ChIJcVC2pWDP1WoRgrwLtSh9Ly8,Mornington Peninsula,Australia,AU,-38.2854053,145.093449
ChIJ5QLHcRM-c2sRoKgyFmh9AQQ,Newcastle (Australia),Australia,AU,-32.9282712,151.7816802
ChIJuzcI4UmiMioRgETfNbXwBAU,Perth (Fremantle),Australia,AU,-32.0569,115.7439
ChIJ6yZFD7ingmkRgBAhf_HuAAU,Port Douglas,Australia,AU,-16.483611,145.465278
ChIJEQp6Y2iYnaoRoNWgMKR5BQU,Portland (Australia),Australia,AU,-38.360895,141.6041155
ChIJdyUzRSlFtWoRINyOYlQ2AwQ,Robe,Australia,AU,-37.1748833,139.8029173
ChIJP3Sa8ziYEmsRUKgyFmh9AQM,Sydney (Australia),Australia,AU,-33.8688197,151.2092955
ChIJn9FygElssGkRoNogf_HuAAQ,Thursday Island,Australia,AU,-10.5799169,142.2193906
ChIJv7oXJhkI2WsRsUUG_uWTUjQ,Whitsundays,Australia,AU,-20.1882758,148.7268546
ChIJe1YLH6UZE2sRIOcyFmh9AQU,Wollongong,Australia,AU,-34.4278121,150.8930607
ChIJNb4UJ3a_DA0RD4cANiYlTjg,Gibraltar,Gibraltar,GI,36.140751,-5.353585
ChIJndWFIzGs8k4Rag_5GZYnKOI,Ilulissat,Greenland,GL,69.2198118,-51.0986032
ChIJD5gyo-3iAzQRfMnq27qzivA,Hong Kong,Hong Kong,HK,22.396428,114.109497
ChIJ06f8IHUv0i0RhM1WxCy2cig,Bali,Indonesia,ID,-8.3405389,115.0919509
ChIJRceMPtK3zS0RydhQq8SJZkQ,Lombok,Indonesia,ID,-8.650979,116.3249438
ChIJdZOLiiMR2jERxPWrUs9peIg,Singapore,Singapore,SG,1.352083,103.819836
ChIJA3B6D9FT4joRjYPTMk0uCzI,Colombo,Sri Lanka,LK,6.9270786,79.861243
ChIJ655etsCLo48RiOeUwjtdYo0,Bahia Drake,Costa Rica,CR,8.711884,-83.661440000000013
ChIJL-Rd3x1npI8RGxMqt8Q_e-k,Golfo Dulce,Costa Rica,CR,8.4691779,-83.2077645
ChIJA9lQcTYFp48RX4EMBf1k2CQ,Puerto Limon,Costa Rica,CR,9.9913106,-83.041507799999991
ChIJG7vkppQuoI8R62H4HTbOc84,Puntarenas (Puerto Caldera),Costa Rica,CR,9.9714663999999988,-84.8307656
ChIJkfs8OMVzoY8RcUMedtc7BDM,Quepos,Costa Rica,CR,9.4318680999999991,-84.161907599999992
ChIJUX0od1p1DowRqwdKtzc-vuw,Guadeloupe,Guadeloupe,GP,16.265,-61.550999999999988
ChIJDQdmAPmgaowRsOevFxIbAOE,Martinique,Martinique,MQ,14.641528,-61.024174
ChIJG8lwPQYzTBMRBpMuIV7xc3o,Kotor,Montenegro,ME,42.424662,18.771234
ChIJnTbH4VOrE4wRorEFiIPqDx4,Montserrat,Montserrat,MS,16.742498,-62.187366
ChIJVdpmtiOX5h4RQrRrmld_SUI,Maputo,Mozambique,MZ,-25.891968,32.6051351
ChIJb7c6xoqyYo8RxLfC5g7Qy_c,Acajutla,El Salvador,SV,13.5957,-89.827089399999991
ChIJVXealLU_xkcRja_At0z9AGY,Amsterdam,Netherlands,NL,52.3702157,4.8951679000000006
ChIJcyKbzpG6x0cR18pz-eBaHBY,Arnhem,Netherlands,NL,51.9851034,5.8987295999999994
ChIJfcRUX2C3xUcRhUtelay7KVI,Rotterdam,Netherlands,NL,51.9244201,4.4777325
ChIJE95FCQrMM20RoFp5hIbvAAU,Akaroa,New Zealand,NZ,-43.8036657,172.9682621
ChIJ--acWvtHDW0RF5miQ2HvAAU,Auckland,New Zealand,NZ,-36.8484597,174.7633315
ChIJyXZ7M1KvC20RgODhZWHvACo,Bay of Islands,New Zealand,NZ,-35.1843701,174.1646163
ChIJAe3FY0gvMm0RRZl5hIbvAAU,Christchurch,New Zealand,NZ,-43.5320544,172.6362254
ChIJl6ywQZzAZW0RB5miQ2HvAAU,Gisborne,New Zealand,NZ,-38.662334,178.017649
ChIJ12kUrJTE0qkRIKSW54jvAAo,Invercargill,New Zealand,NZ,-46.4131866,168.3537731
ChIJmcqxT9bJaW0RUOiiQ2HvAAU,Napier,New Zealand,NZ,-39.4928444,176.9120178
ChIJBTjUpOomOW0RYKF5hIbvAAU,Picton,New Zealand,NZ,-41.2905926,174.0010044
ChIJPddu1o9ezakRWvdmaKBUWt4,Stewart Island,New Zealand,NZ,-46.9972767,167.8372114
ChIJ5WTUe-d2bm0RJpmjQ2HvAAU,Tauranga,New Zealand,NZ,-37.687797499999988,176.1651295
ChIJy3TpSfyxOG0RcLQTomPvAAo,Wellington,New Zealand,NZ,-41.2864603,174.776236
ChIJi8MeVwPKlzMRH8FpEHXV0Wk,Manila,Philippines,PH,14.5995124,120.9842195
ChIJndFfKiDmBIwRexs6o67-eL8,Isla Culebra,Puerto Rico,PR,18.3214856,-65.2916451
ChIJbxlo4m9oA4wR3FqTXA9_a60,San Juan,Puerto Rico,PR,18.4655394,-66.1057355
ChIJHaMt8WVgQIwR9Z056MSGdG4,St. Lucia,Saint Lucia,LC,13.909444,-60.978893
ChIJWfpeOoOaezUR1L5cy5agS40,Seoul (Incheon),South Korea,KR,37.4601908,126.4406957
ChIJTzBpJ8dJkEcRkIpt83DrHDY,Basel,Switzerland,CH,47.5595986,7.5885761
ChIJeXNUeSr6j0cRr1KZQNEq8K4,Lucerne,Switzerland,CH,47.050168199999987,8.3093072
ChIJcw5etL5HJIkRLYS508LM6P8,Castaway Cay,The Bahamas,BS,26.0936823,-77.5332796
ChIJ47dVibJ4JokRbU6Z18TAUkI,CocoCay,The Bahamas,BS,25.8178634,-77.938883
ChIJUXDyTeHVJYkRkE2SfTCEVts,Great Stirrup Cay,The Bahamas,BS,25.8248705,-77.9096036
ChIJJXbpfMRCMIkRBoCLORH1F7g,Half Moon Cay,The Bahamas,BS,24.5712472,-75.9143867
ChIJyduBuZl8L4kR0lBeSNMB7yo,Nassau,The Bahamas,BS,25.0479835,-77.355413
ChIJZakqaiurOokRt5cmafzjZ0o,Princess Cays,The Bahamas,BS,24.9314461,-76.189966099999992
ChIJ6SqjrGjRV3ERXZ7_fsQBoFE,Rarotonga,Cook Islands,CK,-21.2292371,-159.7763491
ChIJw5D41mJuDowRQo8zJsIsi3I,St. Maarten,Sint Maarten,SX,18.04248,-63.05483
ChIJ1-4miA9QzB0Rh6ooKPzhf2g,Cape Town,South Africa,ZA,-33.9248685,18.4240553
ChIJt2G8AQCq9x4RgW6qxEZVp8w,Durban,South Africa,ZA,-29.85868039999999,31.0218404
ChIJK9b_RQApex4RJkKJzTcj_YY,Port Elizabeth,South Africa,ZA,-33.7139247,25.5207358
ChIJtxIj2ncY-h4RYHFXnqCSzZ8,Richards Bay,South Africa,ZA,-28.7807276,32.0382856
ChIJn0s-nx28KWwRIkua6PvKmqo,Isle of Pines (New Caledonia),New Caledonia,NC,-22.6149275,167.4816693
ChIJi5KbuCaXg24R-fBYjzDjRfU,Lifou,New Caledonia,NC,-20.9448472,167.2405153
ChIJyzIaP2niJ2wRAN0S8yqy8Xs,Noumea,New Caledonia,NC,-22.2558234,166.4505243
ChIJ1cmKF4lV5IgRG0ZcW9coKuU,Amelia Island,United States,US,30.6265697,-81.460855999999993
ChIJQT-zBHaRyFYR42iEp1q6fSU,Anchorage,United States,US,61.2180556,-149.9002778
ChIJt4P01q4DyIkRWOcjQqiWSAQ,Baltimore,United States,US,39.2903848,-76.6121893
ChIJkyWAFUi-rkwRG9nKKGUa6Yg,Bar Harbor,United States,US,44.3876119,-68.2039123
ChIJy3RfMmc4JIYRHZpXkdvxIyE,Baton Rouge,United States,US,30.4582829,-91.1403196
ChIJTadyoDZQwokRHwfAKQzSj_g,Bayonne (Cape Liberty),United States,US,40.6648735,-74.0725745
ChIJGzE9DS1l44kRoOhiASS_fHg,Boston,United States,US,42.3600825,-71.0588801
ChIJlQiahR8LV4gRqdtORjPanhE,Broome,United States,US,34.986223,-81.842444
ChIJJYvheyNv3YARqw71xdWjWT4,Catalina Island (California),United States,US,33.3878856,-118.4163103
ChIJdySo3EJ6_ogRa-zhruD3-jU,Charleston,United States,US,32.7764749,-79.931051200000013
ChIJ7cv00DwsDogRAMDACa2m4K8,Chicago,United States,US,41.8781136,-87.6297982
ChIJObMZS51ZwokRWouOc3qwUmc,Cienfuegos,United States,US,40.725651000000013,-73.9840645
ChIJBRbQiP_zzVYRpTYZExU7tcY,Denali National Park and Preserve,United States,US,63.1148002,-151.1926057
ChIJrV5odTNjx4kR8GwA-0fk4qk,Dover,United States,US,39.158168,-75.5243682
ChIJ04aKwIQr44cRR3GjJsYevrQ,Dubuque,United States,US,42.5005583,-90.66457179999999
ChIJYSuhxQ3xwogR9RBIc5e9p88,Dunedin,United States,US,28.0197404,-82.7717684
ChIJjwgigK68qEwR05tz9AJ7ZyU,Eastport,United States,US,44.9061906,-66.989978499999992
ChIJ82Dog8rQ5IkRNGG2NHdkgbU,Falmouth,United States,US,41.5532208,-70.60858859999999
ChIJd24rDm0A2YgRJPcAnWrTPAc,Fort Lauderdale (Port Everglades),United States,US,26.0816545,-80.1205478
ChIJ1esxKIZ7wokRFTkePKJbt4U,Freeport,United States,US,40.6576022,-73.58318349999999
ChIJWZIFxMhZP4YRwezquckDi-U,Galveston,United States,US,29.3013479,-94.7976958
ChIJpwhC0wkNqlYRYD228-ekk-I,Glacier Bay,United States,US,58.66580729999999,-136.9002147
ChIJI8q6w4n3wIcRUP7PD6MlXvU,Gladstone,United States,US,39.2038918,-94.554677
ChIJBRH6YmaPV4gRlnYlv3edqtg,Greenville,United States,US,34.852617599999988,-82.3940104
ChIJjblRKJcfAFQRjhH96mCa8bQ,Haines,United States,US,59.2358333,-135.445
ChIJiVRAO05GQIgRpf5dgSByWiE,Hamilton,United States,US,39.3995008,-84.5613355
ChIJ9VYxCaTo3YcRPKrrdk5Oi5o,Hannibal,United States,US,39.7083789,-91.35848159999999
ChIJ1YAOuSQ--4kRhbXcm5AiA3w,Harwich,United States,US,41.6716498,-70.0622231
ChIJyd6XbFpLUnkRxhUMMwCpW8E,Hilo,United States,US,19.7070942,-155.0884869
ChIJbSvLeTrrEYgRY_edMPvxtKM,Hobart,United States,US,41.5322592,-87.2550353
ChIJz1qGp-4twVYRu3Pnce2ULh8,Homer,United States,US,59.642500000000013,-151.5483333
ChIJTUbDjDsYAHwRbJen81_1KEs,Honolulu,United States,US,21.3069444,-157.8583333
ChIJZ2FtGcRKIYYRe5xK1q8GPes,"Houmas House Plantation and Gardens, Louisiana",United States,US,30.141329,-90.935363999999993
ChIJAYWNSLS4QIYROwVl894CDco,Houston,United States,US,29.7604267,-95.3698028
ChIJs0Y9MR8eAVQRQxmi943PqIU,Icy Strait,United States,US,58.1292446,-135.4628176
ChIJ66_O8Ra35YgR4sf8ljh9zcQ,Jacksonville,United States,US,30.3321838,-81.655650999999992
ChIJOchCJfbb5IgRNQQ26mMt0hA,Jekyll Island,United States,US,31.07349189999999,-81.4114142
ChIJjzpqb2zeAFQREfNprlryXgY,Juneau,United States,US,58.3019444,-134.4197222
ChIJYQZLeDAxs1IRqrI0JthWyhQ,Katha,United States,US,45.052136,-93.340680999999989
ChIJR7CeJbsEB3wRijctofUaMvY,Kauai,United States,US,22.0964396,-159.5261238
ChIJW-EphwglDFQRdAbGz2vlkH4,Ketchikan,United States,US,55.342222199999988,-131.6461112
ChIJdyOVrTSx0YgRXjtGdy_pzj8,Key West,United States,US,24.5550593,-81.7799871
ChIJj4GuoG_E6lYRc-TW-0wnKW0,Kodiak,United States,US,57.790000000000013,-152.4072222
ChIJAbSRarIOVHkRp6UtiIMdkQc,Kona,United States,US,19.639994,-155.9969261
ChIJlbMyZ99U-YcRsCI3GRWIqX8,La Crosse,United States,US,43.8013556,-91.239580699999991
ChIJVXe5VkHu2YkRHJYNrF12AeM,Liverpool,United States,US,43.106456,-76.21770459999999
ChIJE9on3F3HwoAR9AhGJW_fL-I,Los Angeles,United States,US,34.0522342,-118.2436849
ChIJR7RcPs7FyIAROAHQry50Wgs,Luxor,United States,US,36.09551,-115.1760672
ChIJ3WFMzEorVXkRfz4R3EHnQ8w,Maui,United States,US,20.7983626,-156.3319253
ChIJRZdD6h5-1YcR_rYaYBXzk9E,Memphis,United States,US,35.1495343,-90.0489801
ChIJEcHIDqKw2YgRZU-t3XHylv8,Miami,United States,US,25.7616798,-80.1917902
ChIJqfhM8R1OmogRGp6Jd1QO6Ew,Mobile,United States,US,30.6953657,-88.0398912
ChIJkfu1cFLkjYARXj1K2AlJSO4,Monterey,United States,US,36.6002378,-121.8946761
ChIJq_-jmBf3JYYR2iSuefBpk1Q,Natchez,United States,US,31.5604442,-91.403171000000015
ChIJZYIRslSkIIYRtNMiXuhbBts,New Orleans,United States,US,29.951065799999991,-90.0715323
ChIJv4cTh4tawokRQFmjdeb5YyI,"New York (Brooklyn, Red Hook)",United States,US,40.6772802,-74.0094471
ChIJYeZuBI9YwokRjMDs_IEyCwo,New York (Manhattan),United States,US,40.7830603,-73.9712488
ChIJa5cJBbe65YkRIW8vLPeWXs4,Newport,United States,US,41.4901024,-71.3128285
ChIJRcoiUzqXuokRCh56zn8Qmas,Norfolk,United States,US,36.8507689,-76.28587259999999
ChIJoY7GIRyrJoYRUiM3fmbnu1o,"Nottoway, Louisiana",United States,US,30.1862953,-91.166955
ChIJH7xquEUwIYYRMGRIw2Uk41U,Oak Alley,United States,US,30.004271,-90.7759974
ChIJb2qvIJqksYkRdmxQCxsJZcM,Petersburg,United States,US,37.2279279,-77.40192669999999
ChIJ60u11Ni3xokRwVg-jNgU9Yk,Philadelphia,United States,US,39.9525839,-75.1652215
ChIJX6EEvJW6PoYR7Zxq3JuCwnY,Port Arthur,United States,US,29.8849504,-93.939946999999989
ChIJx4eI8n5k54gRHE_CsJo68BA,Port Canaveral (Orlando),United States,US,28.4912906,-81.2925305
ChIJCep1AlPU2IgRmVuPhut1Ri8,Port of Palm Beach,United States,US,26.7670074,-80.0511523
ChIJLe6wqnKcskwRKfpyM7W2nX4,Portland (Maine),United States,US,43.661471000000013,-70.2553259
ChIJX9rHnNSI94cRids7Sc0_ICI,Red Wing,United States,US,44.5660691,-92.5369563
ChIJSx6SrQ9T2YARed8V_f0hOg0,San Diego,United States,US,32.715738,-117.1610838
ChIJIQBpAG2ahYAR_6128GcTUEo,San Francisco,United States,US,37.7749295,-122.4194155
ChIJBSV3Veuy0YkRT05r0nX-_UU,Savona,United States,US,42.2886844,-77.2183091
ChIJVTPokywQkFQRmtVEaUZlJRA,Seattle,United States,US,47.6062095,-122.3320708
ChIJxf8q8m6bx1YRvxHSNsJg4Vs,Seward,United States,US,60.104166699999993,-149.4422222
ChIJuWN1b4NmBFQRdBzIn0jaQSU,Sitka,United States,US,57.0530556,-135.33
ChIJQZHeACWpqlYRalM6MncXJV4,Skagway,United States,US,59.458333299999993,-135.3138889
ChIJT3_fdVeC5ogRJ2AnixeDocI,St. Augustine,United States,US,29.9012437,-81.31243409999999
ChIJJ75SR500JIYRzImhwFXiU4Q,St. Francisville,United States,US,30.7880721,-91.3768479
ChIJ-Y7t-qm02IcRW-C7IsrqOb4,St. Louis,United States,US,38.6270025,-90.199404199999989
ChIJScQNlXdTBogR1i0qxeiZm5I,St. Vincent,United States,US,43.084566,-89.361932
ChIJQwBR2vz5f4cRBxLLF_2tEx8,Stanley,United States,US,44.3386264,-100.8000051
ChIJoy8lnw_vy1YRc8fyP3dIJVE,Talkeetna,United States,US,62.320904600000013,-150.1066221
ChIJ4dG5s4K3wogRY7SWr4kTX6c,Tampa,United States,US,27.950575,-82.4571776
ChIJzwL2jhh554gRfpxsbwmx9QE,Valencia,United States,US,28.5217717,-81.4634578
ChIJuRGx9ifgKIYRwHtPB2kqQnc,Vicksburg,United States,US,32.3526456,-90.877882
ChIJO6wtLttmQoYRfSZjb1YN4u4,Victoria,United States,US,28.8052674,-97.0035982
ChIJ94d6VYbTwoARWiRAwUd9qCc,Whittier,United States,US,33.9791793,-118.032844
ChIJq8l0wDrKCFQRc9jhlV0bTc0,Wrangell,United States,US,56.4708333,-132.3766666
ChIJyf1IkreEpnERK0EVzuwzjjU,Pago Pago,American Samoa,AS,-14.2756319,-170.7020359
ChIJoUmZ14eJJY8RSSyQGAztCzo,Grand Cayman,Cayman Islands,KY,19.3221698,-81.2408689
ChIJOcm6rR_RS2wRUhVdMyOYerk,Norfolk Island,Norfolk Island,NF,-29.040835,167.954712
ChIJO4rQ1_3_YEgRMcXH7ywWVy4,Belfast,United Kingdom,GB,54.597285000000007,-5.93012
ChIJiXzzMsqScUgRYvZXCv_2hwI,Bristol (Avonmouth),United Kingdom,GB,51.5022576,-2.6914364
ChIJIyaYpQC4h0gRJxfnfHsU8mQ,Edinburgh,United Kingdom,GB,55.953252,-3.188267
ChIJvRr65Y8KbUgRhvNbPh0EoZk,Exmouth,United Kingdom,GB,50.619957,-3.413702
ChIJU5FQ6RxHiEgR2cv3Y3ivUCA,Greenock (Glasgow),United Kingdom,GB,55.8138235,-4.256431
ChIJ7Q8cbLY0ZEgRbyP7jNCcjiQ,Holyhead,United Kingdom,GB,53.309441,-4.633038
ChIJIXxOss2Ej0gR-K-s146lGjI,Invergordon,United Kingdom,GB,57.688106,-4.172882
ChIJGwS8KR7-mkgR6OhpT5NnI_I,Kirkwall,United Kingdom,GB,58.984674000000012,-2.962249
ChIJicutH3aLnkgRLLgTVFA3II4,Lerwick,United Kingdom,GB,60.1529871,-1.1492932
ChIJI93Y3yW22EcR3kxhsPY931U,London (Tilbury),United Kingdom,GB,51.4603495,0.3699965
ChIJzWRvDH6FfUgRkWGncrBS4gs,Newcastle (England),United Kingdom,GB,54.978252,-1.61778
ChIJCSkVvleJc0gR8HHaTGpajKc,Southampton,United Kingdom,GB,50.909700400000013,-1.4043509
ChIJYcrYkwPltTARgZnowxdHGjc,Bagan,Myanmar (Burma),MM,21.1717271,94.8585458
ChIJdckZgiWaMTcRb7qQyz8BwKM,Bhamo,Myanmar (Burma),MM,24.2629574,97.23831779999999
ChIJVdH7LDbrwTARaSU9uaWCb34,Kyun Daw,Myanmar (Burma),MM,16.8125785,96.1315857
ChIJEXTS8CNtyzARRlZOHuBrFCQ,Mandalay,Myanmar (Burma),MM,21.9588282,96.0891032
ChIJaxk-Ip6UwTARtAsI-HHS-1Y,Yangon (Rangoon),Myanmar (Burma),MM,16.8660694,96.195132000000015
ChIJu6IGNI9bKG8R3ATs9q89-kM,Honiara,Solomon Islands,SB,-9.4456381,159.9728999
ChIJq5hKihi9vXYRYc7Vkp4IChY,Bora Bora,French Polynesia,PF,-16.5004126,-151.7414904
ChIJDTrtqLHHl3YR0oDHHnLNKsQ,Huahine,French Polynesia,PF,-16.7882653,-150.9889238
ChIJH9SMu2YnmnYRpBSMkqvgyg8,Moorea,French Polynesia,PF,-17.5388435,-149.8295234
ChIJ0ReURlx7vXYRgygBaBuqbeE,Raiatea,French Polynesia,PF,-16.8164132,-151.4552213
ChIJ1TXK9XE0jHYRSvAKGgeCSJk,Rangiroa,French Polynesia,PF,-15.0945706,-147.5985807
ChIJlWZPhxw6mnYRKzaBKFPb1mI,Tahiti (Papeete),French Polynesia,PF,-17.5516251,-149.5584758
ChIJrfTsi4TbHmkRgr-M3wXx2Ug,Alotau,Papua New Guinea,PG,-10.3157027,150.4587795
ChIJI2T8IBMkImkRQKLjrTAK018,Conflict Islands,Papua New Guinea,PG,-10.7689142,151.6918158
ChIJ6YdBBHv14GgR0b6t1rON20A,Kiriwina and Kitava (Trobriand Islands),Papua New Guinea,PG,-8.666667,150.916667
ChIJV-UGScnm9WgRUbC3_OU_oPs,Madang,Papua New Guinea,PG,-5.2218841,145.7856324
ChIJ0QREIXcxAmkRfcNnZKYUPJM,Port Moresby,Papua New Guinea,PG,-9.4780123,147.1506542
ChIJfxWZOVlzv2gRxZ-NTWKzJqE,Rabaul,Papua New Guinea,PG,-4.1999648,152.1644612
ChIJnej-KlR1DowR5nUq6msRdAE,St. Barts,Saint Barthélemy,BL,17.9,-62.833333
ChIJT0GXLRPusY4RooHKBxaqpbw,Amber Cove,Dominican Republic,DO,19.8333254,-70.7752381
ChIJS1K23U-qqI4Rf06RBib3KH8,La Romana (Casa de Campo),Dominican Republic,DO,18.4272839,-68.9177426
ChIJ-f__Ly7ero4R8dujA0-fnqo,Samana and Cayo Levantado,Dominican Republic,DO,19.166347,-69.277131
ChIJq6V-EPGJr44RZMEVJ7iHxdY,Santo Domingo,Dominican Republic,DO,18.4860575,-69.931211699999992
ChIJryxSY_rqEowR_rUaX0nN9cs,Antigua,Antigua and Barbuda,AG,17.0746557,-61.8175207
ChIJScNLF94HNowRhUINFlP23t0,Port of Spain (Trinidad),Trinidad and Tobago,TT,10.6549013,-61.501925599999993
ChIJ-4bpuRjKGowRXFqImZYbLyI,St. Croix,U.S. Virgin Islands,VI,17.7245968,-64.834799199999992
ChIJlXiAd5ASBYwRmmnTJdolT7U,St. John (U.S.V.I.),U.S. Virgin Islands,VI,18.3368114,-64.7280952
ChIJtzUG3IkaBYwR5Jf28eeAEl0,St. Thomas,U.S. Virgin Islands,VI,18.3380965,-64.8940946
ChIJufI-cg9EXj4RCBGXQZMuzMc,Abu Dhabi,United Arab Emirates,AE,24.453884,54.3773438
ChIJRcbZaklDXz4RYlEphFBu5r0,Dubai,United Arab Emirates,AE,25.2048493,55.2707828
ChIJ5z8miz4ag44R9TaEQM-4iUc,Bonaire,Caribbean Netherlands,BQ,12.2018902,-68.26238219999999
ChIJJ8xh6UIgDowRvrW3lGIYA6o,Saba,Caribbean Netherlands,BQ,17.6354642,-63.2326763
ChIJxR3SHZw9EowRMLjDuFFLGVk,Nevis,Saint Kitts and Nevis,KN,17.1553558,-62.579602599999987
ChIJs8GJu3wcEowRAg7iCgw0yN0,St. Kitts,Saint Kitts and Nevis,KN,17.3433796,-62.7559043
ChIJ1xlM22QLBYwRB8spgJ7GJKU,Jost Van Dyke,British Virgin Islands,VG,18.4462768,-64.7429131
ChIJcQay4xFuBYwRdI7e2edaNZM,Norman Island,British Virgin Islands,VG,18.3188991,-64.6110597
ChIJ8WxOvPdzBYwRwgs9RMqvHfU,Tortola,British Virgin Islands,VG,18.4334704,-64.633278199999992
ChIJ2cNIPsSBBYwRXrgpNbeo-es,Virgin Gorda,British Virgin Islands,VG,18.4939059,-64.402287700000016
ChIJndWJieyxnUURajw783fyZ2M,Spitsbergen (Svalbard),Svalbard and Jan Mayen,SJ,78.90136,13.4838879
ChIJUVyZkDSx2GYR0OGWcyirmE8,Saipan,Northern Mariana Islands,MP,15.1515153,145.7297891
ChIJhfVNCVTUso4RT2TEeMPZA8s,Grand Turk,Turks and Caicos Islands,TC,21.4674584,-71.13891009999999
ChIJzTnQe0NZR4wR5kyPiMoTsVY,Bequia,Saint Vincent and the Grenadines,VC,13.0117059,-61.2272312
ChIJPdrS-TWAOIwRlS968Fnq2cM,Tobago Cays,Saint Vincent and the Grenadines,VC,12.6333333,-61.35
